accx,accy,accz,gyrox,gyroy,gyroz,magx,magy,magz,imu_time,fix_type,pdop,num_svs,latitude,longitude,altitude,course_deg,speed,time_of_day,roll,pitch,yaw,baro_pressure_mbar,baro_temp_c,mag_x_cal,mag_y_cal,mag_z_cal
5.0658393,-5.744049,-6.140485,-0.053229168,0.020781636,-0.0102083385,377.0,89.0,147.0,3034173400.0,NoFix,12,0,0.0,0.0,0,0.0,0.0,0,43.2256,31.373102,143.87181,970.6429,27.713783,-487.33368,39.317913,341.75165
5.0829163,-5.7550273,-6.133166,-0.018229166,0.0032817125,0.0072916597,382.0,90.0,150.0,3035485000.0,NoFix,12,0,0.0,0.0,0,0.0,0.0,0,43.224934,31.37092,143.86543,970.6429,27.713783,-496.437,41.368004,347.38818
5.0890155,-5.694647,-6.1368256,-0.000729166,-0.01421833,-0.027708344,383.0,93.0,150.0,3036796200.0,NoFix,12,0,0.0,0.0,0,0.0,0.0,0,43.221138,31.370377,143.86163,970.6429,27.713783,-498.3618,47.01449,347.3826
5.1256094,-5.726362,-6.129507,0.051770836,-0.031718373,-0.0102083385,374.0,97.0,146.0,3038107600.0,NoFix,12,0,0.0,0.0,0,0.0,0.0,0,43.220222,31.370634,143.85938,970.64294,27.715195,-482.15787,54.177574,339.90955
5.1170707,-5.7147737,-6.0892534,0.016770834,-0.01421833,-0.027708344,375.0,97.0,155.0,3039419100.0,NoFix,12,0,0.0,0.0,0,0.0,0.0,0,43.21989,31.372034,143.8373,970.64294,27.715195,-483.86475,54.233406,356.99033
5.1750116,-5.6995263,-6.076445,0.016770834,-0.01421833,0.0072916597,385.0,89.0,151.0,3040730600.0,NoFix,12,0,0.0,0.0,0,0.0,0.0,0,43.219692,31.376299,143.83203,970.64294,27.715195,-501.85403,39.603077,349.24692
5.1304884,-5.684279,-6.1215777,-0.000729166,0.020781636,-0.0102083385,378.0,90.0,146.0,3042041900.0,NoFix,12,0,0.0,0.0,0,0.0,0.0,0,43.216557,31.378468,143.82791,970.64294,27.715195,-489.20227,41.220673,339.842
5.0829163,-5.7538075,-6.129507,-0.018229166,0.020781636,0.0072916597,382.0,95.0,150.0,3043353300.0,NoFix,12,0,0.0,0.0,0,0.0,0.0,0,43.21621,31.37657,143.82802,970.64294,27.715195,-496.6093,50.721386,347.40005
5.0755973,-5.707455,-6.074616,-0.000729166,0.0032817125,0.0072916597,378.0,89.0,151.0,3044664800.0,NoFix,12,0,0.0,0.0,0,0.0,0.0,0,43.21632,31.376183,143.81274,970.64667,27.715195,-489.1042,39.36187,349.33603
5.074378,-5.727582,-6.1069403,-0.018229166,0.0032817125,0.059791654,376.0,90.0,149.0,3045976000.0,NoFix,12,0,0.0,0.0,0,0.0,0.0,0,43.216053,31.373974,143.80093,970.64667,27.715195,-485.5213,41.158882,345.5653
5.0451026,-5.7257524,-6.114869,-0.018229166,-0.01421833,0.0072916597,381.0,95.0,149.0,3047287600.0,NoFix,12,0,0.0,0.0,0,0.0,0.0,0,43.21475,31.370687,143.80132,970.64667,27.715195,-494.80063,50.684555,345.51355
5.0664487,-5.731851,-6.139265,-0.000729166,0.0032817125,-0.0102083385,381.0,97.0,151.0,3048599000.0,NoFix,12,0,0.0,0.0,0,0.0,0.0,0,43.212997,31.368298,143.79884,970.64667,27.715195,-494.8441,54.430656,349.31683
5.1176805,-5.6983066,-6.1136494,-0.018229166,0.0032817125,0.024791658,381.0,90.0,147.0,3049910500.0,NoFix,12,0,0.0,0.0,0,0.0,0.0,0,43.210773,31.369123,143.79817,970.6478,27.72593,-494.65378,41.326424,341.7031
5.12378,-5.7147737,-6.1063304,-0.018229166,-0.01421833,0.0072916597,385.0,93.0,150.0,3051221800.0,NoFix,12,0,0.0,0.0,0,0.0,0.0,0,43.209393,31.370047,143.7999,970.6478,27.72593,-502.0046,47.083405,347.35715
5.1067023,-5.705015,-6.1057205,0.034270834,-0.031718373,-0.0102083385,377.0,90.0,152.0,3052533200.0,NoFix,12,0,0.0,0.0,0,0.0,0.0,0,43.208298,31.370329,143.7806,970.6478,27.72593,-487.3045,41.200466,351.25043
5.135368,-5.7098947,-6.1014514,-0.018229166,-0.01421833,-0.0102083385,380.0,91.0,147.0,3053844700.0,NoFix,12,0,0.0,0.0,0,0.0,0.0,0,43.206776,31.37222,143.7795,970.6478,27.72593,-492.86685,43.162643,341.7182
5.111582,-5.6976967,-6.0947423,-0.018229166,0.03828168,-0.027708344,375.0,95.0,147.0,3055156000.0,NoFix,12,0,0.0,0.0,0,0.0,0.0,0,43.205254,31.374294,143.77576,970.6478,27.72593,-483.89764,50.473057,341.79135
5.1500053,-5.73856,-6.1234074,-0.018229166,0.03828168,-0.0102083385,388.0,97.0,148.0,3056467500.0,NoFix,12,0,0.0,0.0,0,0.0,0.0,0,43.204556,31.376535,143.79218,970.6478,27.72593,-507.6321,54.664738,343.5299
5.0829163,-5.708675,-6.1191387,-0.000729166,0.0032817125,-0.027708344,378.0,93.0,151.0,3057779000.0,NoFix,12,0,0.0,0.0,0,0.0,0.0,0,43.20255,31.375988,143.78021,970.6482,27.72593,-489.24203,46.844578,349.34552
5.096944,-5.6995263,-6.1301165,-0.018229166,-0.031718373,-0.0102083385,385.0,93.0,152.0,3059090400.0,NoFix,12,0,0.0,0.0,0,0.0,0.0,0,43.19917,31.375349,143.77599,970.6482,27.72593,-501.97916,47.088158,351.15573
5.073158,-5.727582,-6.147194,-0.018229166,-0.031718373,-0.027708344,371.0,94.0,151.0,3060401700.0,NoFix,4,0,0.0,0.0,0,0.0,0.0,0,43.196243,31.372894,143.75346,970.6482,27.72593,-476.52664,48.474045,349.43698
5.0896254,-5.6824493,-6.1020613,0.034270834,0.0032817125,-0.027708344,381.0,88.0,146.0,3061713200.0,NoFix,4,0,0.0,0.0,0,0.0,0.0,0,43.194492,31.373585,143.75241,970.6482,27.72593,-494.5976,37.582695,339.79907
5.0859656,-5.7062354,-6.157562,-0.000729166,0.0032817125,0.0072916597,382.0,91.0,148.0,3063024600.0,NoFix,4,0,0.0,0.0,0,0.0,0.0,0,43.191048,31.371983,143.7515,970.6482,27.72593,-496.49695,43.233932,343.592
5.092065,-5.7178235,-6.113039,-0.000729166,-0.01421833,0.042291656,383.0,89.0,148.0,3064336000.0,NoFix,4,0,0.0,0.0,0,0.0,0.0,0,43.19033,31.370708,143.75148,970.64703,27.715195,-498.2494,39.527035,343.57452
5.076207,-5.7227025,-6.1203585,0.016770834,-0.01421833,0.024791658,378.0,93.0,145.0,3065647400.0,NoFix,4,0,0.0,0.0,0,0.0,0.0,0,43.1897,31.368664,143.75537,970.64703,27.715195,-489.3184,46.830326,337.94983
5.140247,-5.73856,-6.1057205,-0.018229166,0.03828168,-0.027708344,377.0,97.0,147.0,3066958800.0,NoFix,4,0,0.0,0.0,0,0.0,0.0,0,43.1898,31.371094,143.7583,970.64703,27.715195,-487.60934,54.283325,341.77063
5.1006036,-5.7172136,-6.0855937,0.0,0.037917137,-0.0072916597,378.0,92.0,154.0,3068270000.0,NoFix,4,0,0.0,0.0,0,0.0,0.0,0,43.190304,31.372198,143.74046,970.64703,27.715195,-489.1694,44.981026,355.041
5.090845,-5.7214828,-6.099012,0.016041666,0.037552595,0.02697917,377.0,87.0,145.0,3069581600.0,NoFix,4,0,0.0,0.0,0,0.0,0.0,0,43.19099,31.372007,143.73726,970.64703,27.715195,-487.29022,35.57181,337.9483
5.096334,-5.705015,-6.0807147,-0.017135417,0.018958807,-0.009479158,379.0,90.0,153.0,3070893000.0,NoFix,4,0,0.0,0.0,0,0.0,0.0,0,43.190624,31.373007,143.72083,970.6489,27.715195,-490.9346,41.271755,353.1242
5.079867,-5.7153835,-6.1246276,0.0175,-0.015676618,-0.007656239,377.0,92.0,147.0,3072204500.0,NoFix,4,0,0.0,0.0,0,0.0,0.0,0,43.189194,31.371584,143.71666,970.6489,27.715195,-487.43707,44.929943,341.75876
5.082602,-5.699414,-6.118139,-0.017864583,-0.031718373,0.011302091,385.0,89.0,143.0,3073515800.0,NoFix,4,0,0.0,0.0,0,0.0,0.0,0,43.186657,31.37028,143.73013,970.6489,27.715195,-501.95584,39.584076,334.05267
5.0930033,-5.7561417,-6.1035585,-0.000364583,-0.030624628,-0.0051041543,380.0,91.0,153.0,3074827300.0,NoFix,4,0,0.0,0.0,0,0.0,0.0,0,43.187695,31.368877,143.71652,970.6489,27.715195,-492.7905,43.17689,353.11386
5.087965,-5.716492,-6.092024,0.0175,-0.013853788,-0.0043749884,380.0,84.0,148.0,3076138800.0,NoFix,4,0,0.0,0.0,0,0.0,0.0,0,43.18783,31.368517,143.70659,970.6489,27.715195,-492.6129,30.070282,343.60083
5.078916,-5.7116466,-6.0950646,0.016770834,-0.030624628,0.030260421,386.0,94.0,145.0,3077450000.0,NoFix,4,0,0.0,0.0,0,0.0,0.0,0,43.18776,31.367079,143.72406,970.64954,27.720848,-503.9241,48.976665,337.85037
5.0818005,-5.7036138,-6.133396,-0.0175,0.021875381,-0.005468741,379.0,93.0,151.0,3078761500.0,NoFix,4,0,0.0,0.0,0,0.0,0.0,0,43.185047,31.366335,143.71474,970.64954,27.720848,-491.06345,46.879036,349.3328
5.085862,-5.7083354,-6.094256,-0.015677083,-0.030624628,-0.0065624937,383.0,88.0,150.0,3080073000.0,NoFix,4,0,0.0,0.0,0,0.0,0.0,0,43.183952,31.365812,143.70857,970.64954,27.720848,-498.18948,37.66111,347.37073
5.0999603,-5.7156625,-6.140558,0.0029166676,0.0043754578,-0.0065624937,374.0,91.0,149.0,3081384400.0,NoFix,4,0,0.0,0.0,0,0.0,0.0,0,43.181767,31.365324,143.69398,970.64954,27.720848,-481.91296,42.960644,345.59314
5.0868297,-5.7530856,-6.1157775,0.020416668,0.021146178,0.010572918,385.0,96.0,147.0,3082695700.0,NoFix,4,0,0.0,0.0,0,0.0,0.0,0,43.183113,31.364012,143.70894,970.64954,27.720848,-502.14615,52.688313,341.66644
5.1122217,-5.7296867,-6.1295457,0.0032812506,0.021146178,0.02734375,390.0,85.0,151.0,3084007200.0,NoFix,4,0,0.0,0.0,0,0.0,0.0,0,43.18252,31.363865,143.70857,970.64954,27.720848,-510.82324,32.292664,349.1738
5.099858,-5.7259107,-6.0496044,-0.0134895835,-0.013124585,0.044114582,374.0,98.0,146.0,3085318700.0,NoFix,4,0,0.0,0.0,0,0.0,0.0,0,43.184902,31.36422,143.71243,970.64954,27.720848,-482.19232,56.04825,339.9119
5.087265,-5.71761,-6.102279,0.02078125,0.0043754578,0.060520828,374.0,89.0,145.0,3086630000.0,NoFix,4,0,0.0,0.0,0,0.0,0.0,0,43.185417,31.363031,143.70714,970.64954,27.720848,-481.89493,39.20979,337.99124
5.104355,-5.7243395,-6.078529,0.0371875,0.055781722,0.0076562464,371.0,97.0,148.0,3087941400.0,NoFix,4,0,0.0,0.0,0,0.0,0.0,0,43.187588,31.364445,143.69975,970.64954,27.720848,-476.66818,54.07895,343.74628
5.0715194,-5.7347975,-6.092041,0.0021874998,0.0029171705,-0.009114586,380.0,90.0,149.0,3089252900.0,NoFix,4,0,0.0,0.0,0,0.0,0.0,0,43.188404,31.363274,143.69495,970.64954,27.720848,-492.80692,41.296715,345.51437
5.072657,-5.6908126,-6.0980396,0.0021874998,-0.01421833,-0.026614591,372.0,91.0,147.0,3090564400.0,NoFix,4,0,0.0,0.0,0,0.0,0.0,0,43.18656,31.36291,143.68187,970.65,27.725372,-478.2956,42.88698,341.82004
5.0757885,-5.728094,-6.1139903,-0.014947917,0.037187934,-0.043385424,377.0,87.0,144.0,3091875600.0,NoFix,4,0,0.0,0.0,0,0.0,0.0,0,43.18575,31.362553,143.68037,970.65,27.725372,-487.30295,35.56944,336.04904
5.0851192,-5.685018,-6.116653,0.0018229168,0.0032817125,-0.009114586,378.0,97.0,148.0,3093187000.0,NoFix,4,0,0.0,0.0,0,0.0,0.0,0,43.1831,31.36252,143.68143,970.65,27.725372,-489.41803,54.320156,343.65717
5.0609636,-5.6944227,-6.1321735,0.0014583338,-0.01421833,0.008020826,380.0,96.0,144.0,3094498600.0,NoFix,4,0,0.0,0.0,0,0.0,0.0,0,43.180225,31.360352,143.6939,970.65,27.725372,-493.0773,52.508896,336.03223
5.1260486,-5.75644,-6.0929747,-0.016041666,0.0025525093,-0.026250012,377.0,90.0,146.0,3095809800.0,NoFix,7,0,0.0,0.0,0,0.0,0.0,0,43.18159,31.361588,143.69197,970.65,27.725372,-487.38086,41.186214,339.85474
5.1083255,-5.746028,-6.1032877,-0.016770832,0.0029170513,-0.025885426,379.0,95.0,150.0,3097121300.0,NoFix,7,0,0.0,0.0,0,0.0,0.0,0,43.18199,31.36196,143.68884,970.65045,27.725372,-491.14508,50.61801,347.43826
5.1311145,-5.699342,-6.1053925,0.00036458485,-0.03135383,-0.008020833,379.0,94.0,151.0,3098432800.0,NoFix,7,0,0.0,0.0,0,0.0,0.0,0,43.18027,31.363575,143.68079,970.65045,27.725372,-491.0979,48.74971,349.33517
5.1553173,-5.6832857,-6.113099,0.00036458485,0.054687977,0.008749999,381.0,91.0,145.0,3099744300.0,NoFix,7,0,0.0,0.0,0,0.0,0.0,0,43.178295,31.367464,143.68759,970.65045,27.725372,-494.7137,43.19235,337.9069
5.10937,-5.7135925,-6.0928326,-0.0328125,0.035729647,-0.008749999,379.0,98.0,146.0,3101055500.0,NoFix,7,0,0.0,0.0,0,0.0,0.0,0,43.177746,31.368923,143.69798,970.65045,27.725372,-491.29935,56.22054,339.84827
5.0960093,-5.7051163,-6.103261,-0.03171875,0.051771402,0.008020833,378.0,95.0,147.0,3102367000.0,NoFix,7,0,0.0,0.0,0,0.0,0.0,0,43.17663,31.369692,143.70074,970.65045,27.725372,-489.36185,50.57643,341.75317
5.0753145,-5.7393007,-6.1124496,-0.030624999,-0.0010931492,0.025156245,385.0,94.0,147.0,3103678500.0,NoFix,7,0,0.0,0.0,0,0.0,0.0,0,43.17648,31.367632,143.71288,970.65045,27.725372,-502.07724,48.946957,341.66168
5.090526,-5.738045,-6.1044855,-0.029895833,-0.017863989,0.024427079,382.0,95.0,146.0,3104989700.0,NoFix,7,0,0.0,0.0,0,0.0,0.0,0,43.17652,31.36629,143.72398,970.65045,27.725372,-496.66022,50.711887,339.80295
5.094584,-5.709227,-6.0988665,0.03901042,-0.034270287,0.0069270805,384.0,96.0,143.0,3106301200.0,NoFix,7,0,0.0,0.0,0,0.0,0.0,0,43.176453,31.365831,143.74515,970.65045,27.725372,-500.37564,52.64435,334.08203
5.0926676,-5.7297845,-6.137052,0.0040104166,-0.016406178,0.024062492,385.0,88.0,148.0,3107612700.0,NoFix,7,0,0.0,0.0,0,0.0,0.0,0,43.17529,31.36411,143.74658,970.65045,27.725372,-501.85776,37.725277,343.5467
5.0951433,-5.7347035,-6.07186,0.02078125,0.0010938644,-0.0094791725,383.0,93.0,152.0,3108924200.0,NoFix,7,0,0.0,0.0,0,0.0,0.0,0,43.17746,31.36448,143.74274,970.65045,27.725372,-498.33633,47.01924,351.18118
5.0899405,-5.7239733,-6.120853,0.020052085,0.017864585,-0.026250012,380.0,95.0,143.0,3110235400.0,NoFix,7,0,0.0,0.0,0,0.0,0.0,0,43.176876,31.364223,143.75677,970.6504,27.7248,-493.05557,50.635845,334.13058
5.0982704,-5.712233,-6.0658565,0.03682292,0.017500043,-0.008750007,376.0,91.0,144.0,3111547000.0,NoFix,7,0,0.0,0.0,0,0.0,0.0,0,43.17869,31.365538,143.75874,970.6504,27.7248,-485.61942,43.017685,336.07126
5.0955925,-5.7485456,-6.1143456,0.0014583357,0.0171355,0.009114578,385.0,89.0,147.0,3112858400.0,NoFix,7,0,0.0,0.0,0,0.0,0.0,0,43.179493,31.36472,143.76471,970.6504,27.7248,-501.90494,39.59358,341.6498
5.095456,-5.7404666,-6.119669,-0.016041664,-0.0007289648,-0.008020833,379.0,93.0,149.0,3114169600.0,NoFix,7,0,0.0,0.0,0,0.0,0.0,0,43.17906,31.363926,143.76071,970.6504,27.7248,-491.0889,46.874287,345.53424
5.0782156,-5.7262516,-6.127998,-0.032083333,0.015677214,-0.025156252,381.0,92.0,149.0,3115481000.0,NoFix,7,0,0.0,0.0,0,0.0,0.0,0,43.177254,31.362871,143.75809,970.6504,27.7248,-494.69727,45.072525,345.5064
5.102296,-5.691233,-6.0954413,0.0025520865,-0.053593516,0.026614584,387.0,94.0,143.0,3116792600.0,NoFix,7,0,0.0,0.0,0,0.0,0.0,0,43.175785,31.362728,143.7804,970.6472,27.7248,-505.77097,49.00637,334.0391
5.0952044,-5.700557,-6.1553335,0.0021875035,-0.017499804,0.00838542,378.0,90.0,150.0,3118104000.0,NoFix,7,0,0.0,0.0,0,0.0,0.0,0,43.17225,31.361532,143.76718,970.6472,27.7248,-489.15137,41.23017,347.43912
5.11633,-5.7241683,-6.100333,-0.032447916,-0.01640606,-0.009114578,383.0,93.0,147.0,3119415300.0,NoFix,7,0,0.0,0.0,0,0.0,0.0,0,43.171516,31.362291,143.77377,970.6472,27.7248,-498.39996,47.007366,341.68478
5.0885916,-5.7274847,-6.1347184,0.036822923,-0.0331769,0.007656254,382.0,91.0,145.0,3120726800.0,NoFix,7,0,0.0,0.0,0,0.0,0.0,0,43.170753,31.360483,143.78055,970.6472,27.7248,-496.53513,43.226807,337.89417
5.068749,-5.7180414,-6.0893273,0.07000001,-0.0331769,0.024427086,378.0,89.0,144.0,3122038300.0,NoFix,7,0,0.0,0.0,0,0.0,0.0,0,43.172337,31.35866,143.7824,970.64655,27.71859,-489.19327,39.345245,336.04108
5.0928187,-5.7299547,-6.079922,0.016770838,0.0010939837,0.006197922,380.0,92.0,151.0,3123349500.0,NoFix,7,0,0.0,0.0,0,0.0,0.0,0,43.174015,31.358694,143.77492,970.64655,27.71859,-492.8504,45.042816,349.3177
5.113816,-5.7295713,-6.081954,3.7252903e-9,0.06963563,0.005468756,377.0,87.0,151.0,3124661000.0,NoFix,7,0,0.0,0.0,0,0.0,0.0,0,43.17577,31.360641,143.75832,970.64655,27.71859,-487.21387,35.586063,349.344
5.120593,-5.715628,-6.1033764,0.01713542,0.03390646,0.022604167,372.0,91.0,153.0,3125972500.0,NoFix,7,0,0.0,0.0,0,0.0,0.0,0,43.176083,31.362,143.73233,970.64655,27.71859,-478.21924,42.901226,353.2157
5.108396,-5.7064786,-6.104591,-0.00036457926,-0.0014580488,0.040104166,378.0,93.0,147.0,3127283700.0,NoFix,7,0,0.0,0.0,0,0.0,0.0,0,43.175426,31.36221,143.7322,970.64655,27.71859,-489.29294,46.83508,341.7484
5.1142673,-5.7452445,-6.093958,3.7252903e-9,0.015312672,0.005468756,385.0,91.0,149.0,3128595200.0,NoFix,7,0,0.0,0.0,0,0.0,0.0,0,43.17696,31.362827,143.73645,970.64655,27.71859,-501.94843,43.339684,345.45312
5.0746326,-5.727634,-6.0763893,-0.017499996,-0.01859355,-0.029531248,381.0,99.0,144.0,3129906700.0,NoFix,9,0,0.0,0.0,0,0.0,0.0,0,43.177505,31.362259,143.7551,970.6478,27.71859,-495.0021,58.155384,336.02664
5.0726504,-5.7219734,-6.121933,3.7252903e-9,-0.034635305,0.0051041692,381.0,88.0,149.0,3131218200.0,NoFix,9,0,0.0,0.0,0,0.0,0.0,0,43.17625,31.36008,143.7478,970.6478,27.71859,-494.55942,37.58982,345.49692
5.1187134,-5.707036,-6.123435,0.0003645867,0.018229246,0.005468756,381.0,87.0,151.0,3132529400.0,NoFix,9,0,0.0,0.0,0,0.0,0.0,0,43.174667,31.361118,143.73529,970.6478,27.71859,-494.4995,35.723892,349.2931
5.112418,-5.683648,-6.1097846,3.7252903e-9,0.0010938644,0.0051041692,376.0,96.0,149.0,3133841000.0,NoFix,9,0,0.0,0.0,0,0.0,0.0,0,43.172443,31.362356,143.72952,970.6478,27.71859,-485.72806,52.38294,345.57956
5.106615,-5.744866,-6.113673,0.0003645867,-0.03354168,0.021875001,380.0,94.0,146.0,3135152400.0,NoFix,9,0,0.0,0.0,0,0.0,0.0,0,43.172844,31.3613,143.73601,970.6478,27.71859,-492.98294,48.772293,339.82605
5.069461,-5.744292,-6.0850596,0.01713542,-0.016406178,0.021510415,375.0,96.0,152.0,3136463600.0,NoFix,9,0,0.0,0.0,0,0.0,0.0,0,43.174965,31.35936,143.72343,970.6486,27.725647,-483.86847,52.355606,351.29013
5.0898495,-5.7311864,-6.0927005,0.033906255,-0.03390622,0.0036458299,386.0,93.0,149.0,3137775000.0,NoFix,9,0,0.0,0.0,0,0.0,0.0,0,43.176105,31.358479,143.73045,970.6486,27.725647,-503.83875,47.115494,345.44516
5.1090145,-5.7167807,-6.12399,-0.00072916225,0.052135587,-0.030989587,378.0,99.0,152.0,3139086600.0,NoFix,9,0,0.0,0.0,0,0.0,0.0,0,43.1749,31.359808,143.72478,970.6486,27.725647,-489.43607,58.07101,351.25906
5.1090946,-5.743617,-6.11726,-0.00036457926,0.05031264,-0.029895835,375.0,100.0,146.0,3140398000.0,NoFix,9,0,0.0,0.0,0,0.0,0.0,0,43.17528,31.360695,143.73125,970.6486,27.725647,-484.08267,59.82406,339.90393
5.1364784,-5.704557,-6.0909967,-0.01786458,0.049583435,0.0047395825,378.0,90.0,148.0,3141709300.0,NoFix,9,0,0.0,0.0,0,0.0,0.0,0,43.174927,31.363743,143.72578,970.6486,27.725647,-489.17682,41.22542,343.64056
5.119184,-5.7128367,-6.091336,-0.00072916225,-0.0036457777,0.004374996,378.0,90.0,148.0,3143020800.0,NoFix,9,0,0.0,0.0,0,0.0,0.0,0,43.17486,31.36504,143.71974,970.64417,27.725647,-489.17682,41.22542,343.64056
5.107108,-5.6703653,-6.069644,-0.034999996,0.013489604,-0.030260421,388.0,90.0,145.0,3144332300.0,NoFix,9,0,0.0,0.0,0,0.0,0.0,0,43.172916,31.367752,143.73457,970.64417,27.725647,-507.42908,41.562878,337.81543
5.080877,-5.692972,-6.0916877,0.0003645867,-0.0036457777,0.0047395825,379.0,92.0,150.0,3145643500.0,NoFix,9,0,0.0,0.0,0,0.0,0.0,0,43.17193,31.367567,143.72702,970.64417,27.725647,-491.04172,45.00598,347.43112
5.1135097,-5.708572,-6.104873,0.0003645867,0.030989647,-0.01203125,377.0,88.0,148.0,3146955000.0,NoFix,9,0,0.0,0.0,0,0.0,0.0,0,43.171227,31.36904,143.71703,970.64417,27.725647,-487.2865,37.44961,343.64853
5.1040225,-5.718554,-6.1050744,-0.03427083,-0.0043748617,-0.010937497,378.0,92.0,145.0,3148266500.0,NoFix,9,0,0.0,0.0,0,0.0,0.0,0,43.170067,31.369343,143.72005,970.64417,27.725647,-489.28394,44.95965,337.94745
5.0869923,-5.6783614,-6.1343856,-0.03317708,0.01276052,-0.026614584,387.0,98.0,146.0,3149578000.0,NoFix,9,0,0.0,0.0,0,0.0,0.0,0,43.16573,31.36946,143.73952,970.64294,27.71463,-505.8706,56.4962,339.74646
5.0835733,-5.7187915,-6.1558847,0.0025520865,-0.02078116,0.00838542,389.0,89.0,148.0,3150889200.0,NoFix,9,0,0.0,0.0,0,0.0,0.0,0,43.1631,31.367226,143.74693,970.64294,27.71463,-509.17786,39.733784,343.49817
5.069647,-5.7213364,-6.091989,-0.03171875,-0.020416617,-0.009114578,377.0,82.0,145.0,3152200700.0,NoFix,9,0,0.0,0.0,0,0.0,0.0,0,43.16268,31.365887,143.73709,970.64294,27.71463,-487.11795,26.218431,337.93643
5.1351705,-5.738663,-6.0465055,0.0032812525,-0.0032811165,0.007656254,380.0,88.0,145.0,3153512200.0,NoFix,9,0,0.0,0.0,0,0.0,0.0,0,43.16606,31.368315,143.74055,970.64294,27.71463,-492.7889,37.54586,337.9125
5.121942,-5.70229,-6.072324,0.020052087,-0.019687414,0.006562501,377.0,92.0,149.0,3154823400.0,NoFix,9,0,0.0,0.0,0,0.0,0.0,0,43.16672,31.370064,143.73274,970.642,27.71463,-487.41162,44.934692,345.5573
5.125992,-5.7459383,-6.055607,0.019687504,0.032083392,-0.028072916,385.0,90.0,152.0,3156135000.0,NoFix,9,0,0.0,0.0,0,0.0,0.0,0,43.1703,31.372635,143.72955,970.642,27.71463,-501.87576,41.476128,351.1486
5.1067634,-5.7412987,-6.0954447,0.0021875035,0.013854146,0.006927088,381.0,90.0,145.0,3157446400.0,NoFix,9,0,0.0,0.0,0,0.0,0.0,0,43.17166,31.372799,143.73595,970.642,27.71463,-494.67923,41.32167,337.9045
5.1133814,-5.726036,-6.0533953,0.0018229205,0.030624986,0.023333333,383.0,88.0,147.0,3158758000.0,NoFix,9,0,0.0,0.0,0,0.0,0.0,0,43.17443,31.374502,143.73936,970.642,27.71463,-498.22766,37.653988,341.6729
5.0597095,-5.715722,-6.0857954,0.018593755,-0.021510482,0.0051041692,377.0,93.0,150.0,3160069000.0,NoFix,9,0,0.0,0.0,0,0.0,0.0,0,43.174973,31.37266,143.73015,970.642,27.71463,-487.43335,46.807743,347.45895
5.0728984,-5.70823,-6.0893073,0.0010937545,-0.021875024,-0.012395829,380.0,98.0,149.0,3161380600.0,NoFix,9,0,0.0,0.0,0,0.0,0.0,0,43.174526,31.371761,143.73335,970.642,27.71463,-493.08258,56.262123,345.5334
5.102698,-5.709436,-6.057014,0.0010937545,-0.020416737,-0.04630208,389.0,84.0,145.0,3162692000.0,NoFix,9,0,0.0,0.0,0,0.0,0.0,0,43.175293,31.37342,143.74298,970.642,27.714912,-509.04376,30.373278,337.78845
5.0666866,-5.739278,-6.111245,0.00036458857,-0.019322991,-0.028437495,387.0,95.0,149.0,3164003300.0,NoFix,11,0,0.0,0.0,0,0.0,0.0,0,43.175217,31.371395,143.75298,970.642,27.714912,-505.72906,50.891304,345.43716
5.0672965,-5.721594,-6.133807,-0.0003645774,0.06781244,-0.02770833,379.0,90.0,151.0,3165314800.0,NoFix,11,0,0.0,0.0,0,0.0,0.0,0,43.173965,31.370476,143.74089,970.642,27.714912,-490.96005,41.267006,349.32565
5.0868096,-5.695983,-6.089293,-0.0010937434,-0.0021874905,-0.009479158,385.0,94.0,150.0,3166626300.0,NoFix,11,0,0.0,0.0,0,0.0,0.0,0,43.17308,31.370743,143.7445,970.642,27.714912,-502.03906,48.95408,347.3595
5.0831513,-5.7008615,-6.1100254,-0.0018229093,-0.0025520325,0.008385427,381.0,90.0,148.0,3167937800.0,NoFix,11,0,0.0,0.0,0,0.0,0.0,0,43.17163,31.370047,143.74214,970.642,27.714912,-494.64105,41.328796,343.60236
5.0831513,-5.7197647,-6.1246605,-0.0010937434,-0.03755212,-0.008749984,386.0,96.0,148.0,3169249000.0,NoFix,11,0,0.0,0.0,0,0.0,0.0,0,43.170044,31.368423,143.75354,970.642,27.714912,-503.95483,52.72514,343.55298
5.130104,-5.6935434,-6.12527,-0.0010937527,-0.037187338,-0.008020833,368.0,91.0,145.0,3170560500.0,NoFix,11,0,0.0,0.0,0,0.0,0.0,0,43.16722,31.36955,143.73788,970.642,27.714912,-471.03543,42.744392,338.07236
5.098727,-5.7237954,-6.0976167,-0.017864587,0.03208351,-0.008020833,383.0,97.0,147.0,3171872000.0,NoFix,11,0,0.0,0.0,0,0.0,0.0,0,43.167316,31.370129,143.75034,970.642,27.714912,-498.53778,54.49007,341.69427
5.1182346,-5.725617,-6.1012673,-0.01713542,-0.036822796,0.008749999,379.0,96.0,146.0,3173183200.0,NoFix,11,0,0.0,0.0,0,0.0,0.0,0,43.16694,31.370329,143.75706,970.642,27.714912,-491.23044,52.479187,339.8435
5.098881,-5.7434053,-6.1043887,0.0010937452,-0.01859355,0.008385412,380.0,95.0,143.0,3174494700.0,NoFix,11,0,0.0,0.0,0,0.0,0.0,0,43.167774,31.369455,143.7719,970.64185,27.712936,-493.05557,50.635845,334.13058
5.1224184,-5.709058,-6.0786037,-0.016041672,0.0506773,-0.008749999,382.0,94.0,151.0,3175806200.0,NoFix,11,0,0.0,0.0,0,0.0,0.0,0,43.168175,31.372108,143.76979,970.64185,27.712936,-496.56213,48.853085,349.297
5.0766354,-5.729206,-6.068299,-0.033177093,0.049583554,-0.025885418,382.0,101.0,148.0,3177117700.0,NoFix,11,0,0.0,0.0,0,0.0,0.0,0,43.169544,31.3726,143.7837,970.64185,27.712936,-496.84152,61.940693,343.61575
5.062667,-5.731103,-6.134238,-0.016041672,-0.0025519133,0.00838542,381.0,94.0,150.0,3178429000.0,NoFix,11,0,0.0,0.0,0,0.0,0.0,0,43.16824,31.369814,143.78105,970.64185,27.712936,-494.75345,48.81625,347.41043
5.0730352,-5.7396407,-6.151924,-0.015677089,0.013489723,0.025885418,381.0,89.0,148.0,3179740400.0,NoFix,11,0,0.0,0.0,0,0.0,0.0,0,43.16683,31.36699,143.7778,970.64185,27.712936,-494.6066,39.45812,343.6
5.0886807,-5.70708,-6.1205654,0.0018229112,0.02989602,0.00838542,379.0,95.0,155.0,3181052000.0,NoFix,11,0,0.0,0.0,0,0.0,0.0,0,43.16562,31.36672,143.76163,970.64185,27.712936,-491.08145,50.629887,356.9347
5.088071,-5.700981,-6.163866,-0.016041672,0.011666775,0.008020833,376.0,92.0,155.0,3182363100.0,NoFix,11,0,0.0,0.0,0,0.0,0.0,0,43.161682,31.365355,143.73608,970.6428,27.712936,-485.5139,44.914482,356.96573
5.0947795,-5.7424517,-6.0870233,0.019322911,-0.023697734,0.008020833,374.0,96.0,151.0,3183674600.0,NoFix,11,0,0.0,0.0,0,0.0,0.0,0,43.163597,31.364647,143.72397,970.6428,27.712936,-482.05978,52.31877,349.40356
5.0831923,-5.755869,-6.0973907,0.020416662,-0.024062276,-0.008749999,377.0,95.0,153.0,3184986000.0,NoFix,11,0,0.0,0.0,0,0.0,0.0,0,43.165543,31.363123,143.71062,970.6428,27.712936,-487.46408,50.55622,353.16156
5.1423483,-5.7082996,-6.1425204,0.03755208,0.010573149,-0.025520839,376.0,100.0,149.0,3186297300.0,NoFix,11,0,0.0,0.0,0,0.0,0.0,0,43.16365,31.365108,143.70941,970.6428,27.712936,-485.8659,59.865643,345.58905
5.1283216,-5.70708,-6.10105,0.036822915,-0.0054684877,0.009479165,377.0,88.0,152.0,3187608800.0,NoFix,11,0,0.0,0.0,0,0.0,0.0,0,43.163727,31.366638,143.69014,970.6428,27.712936,-487.2356,37.459114,351.24567
5.0990486,-5.7333035,-6.070557,0.002187496,0.012395978,-0.024427086,378.0,91.0,152.0,3188920300.0,NoFix,11,0,0.0,0.0,0,0.0,0.0,0,43.165604,31.36758,143.67694,970.6428,27.712936,-489.1604,43.105602,351.24005
5.0764832,-5.7046404,-6.096781,0.019322913,-0.05651021,0.045572914,379.0,88.0,150.0,3190231800.0,NoFix,11,0,0.0,0.0,0,0.0,0.0,0,43.1653,31.365566,143.66556,970.6428,27.712936,-490.90387,37.523277,347.42163
5.0783134,-5.6857347,-6.093732,0.0018229131,-0.02078104,0.02770833,382.0,95.0,151.0,3191543000.0,NoFix,11,0,0.0,0.0,0,0.0,0.0,0,43.16403,31.364841,143.66428,970.6428,27.712936,-496.5966,50.723763,349.29935
5.0972185,-5.7302547,-6.117516,0.0014583301,0.013489723,0.026614577,379.0,90.0,145.0,3192854500.0,NoFix,11,0,0.0,0.0,0,0.0,0.0,0,43.164085,31.364132,143.66798,970.6428,27.712936,-491.0364,41.252754,337.92996
5.0459905,-5.6936626,-6.10349,-0.015677087,0.012395978,-0.008020833,377.0,91.0,148.0,3194166000.0,NoFix,11,0,0.0,0.0,0,0.0,0.0,0,43.162395,31.36243,143.6615,970.6428,27.712936,-487.3899,43.06164,343.65564
5.0923395,-5.70647,-6.0992208,-0.015312504,-0.039010286,-0.0076562464,379.0,93.0,147.0,3195477200.0,NoFix,11,0,0.0,0.0,0,0.0,0.0,0,43.161133,31.362082,143.66249,970.64276,27.71209,-491.11435,46.869537,341.7357
5.0935597,-5.7101293,-6.1187363,0.019322913,-0.021145701,0.009843752,382.0,95.0,147.0,3196788700.0,NoFix,11,0,0.0,0.0,0,0.0,0.0,0,43.160126,31.361324,143.67055,970.64276,27.71209,-496.6475,50.714264,341.70224
5.0630665,-5.7357435,-6.0687275,0.01895833,0.02989602,0.06161458,383.0,87.0,148.0,3198100200.0,NoFix,12,0,0.0,0.0,0,0.0,0.0,0,43.163418,31.3597,143.67186,970.64276,27.71209,-498.18048,35.785683,343.5698
5.0905104,-5.7217164,-6.0833645,0.01895833,0.028802276,0.0094791725,382.0,97.0,144.0,3199411700.0,NoFix,12,0,0.0,0.0,0,0.0,0.0,0,43.164917,31.360046,143.6913,970.64276,27.71209,-496.75458,54.44849,336.00916
5.109416,-5.7479405,-6.10044,0.019322913,0.0102084875,-0.024791665,380.0,81.0,146.0,3200723000.0,NoFix,12,0,0.0,0.0,0,0.0,0.0,0,43.16644,31.360586,143.68379,970.64276,27.71209,-492.53497,24.453503,339.79517
5.0850215,-5.7211065,-6.10166,-0.015312504,-0.006197691,-0.0076562464,381.0,95.0,144.0,3202034400.0,NoFix,12,0,0.0,0.0,0,0.0,0.0,0,43.16598,31.36002,143.69792,970.6409,27.71209,-494.86426,50.67268,336.01715
5.0734344,-5.70708,-6.0931215,-0.03208334,0.012031436,0.026249997,382.0,90.0,144.0,3203346000.0,NoFix,12,0,0.0,0.0,0,0.0,0.0,0,43.16535,31.359179,143.70807,970.6409,27.71209,-496.51337,41.353756,335.99252
5.0447707,-5.7381825,-6.128494,0.002552079,-0.038645625,0.008749999,388.0,94.0,147.0,3204657200.0,NoFix,12,0,0.0,0.0,0,0.0,0.0,0,43.16473,31.355137,143.72342,970.6409,27.71209,-507.54147,49.050335,341.6235
5.0459905,-5.6893935,-6.0583596,-0.014947921,0.013854384,-0.026250005,377.0,101.0,148.0,3205968600.0,NoFix,12,0,0.0,0.0,0,0.0,0.0,0,43.164722,31.354828,143.72897,970.6409,27.71209,-487.73447,61.768402,343.6794
5.108806,-5.7082996,-6.127884,-0.014947921,0.030625343,0.008749999,384.0,92.0,152.0,3207280000.0,NoFix,12,0,0.0,0.0,0,0.0,0.0,0,43.162945,31.35545,143.72469,970.6409,27.71209,-500.1233,45.18302,351.16608
5.0899005,-5.723546,-6.106539,0.002552079,0.012760758,-0.008385412,378.0,93.0,138.0,3208591600.0,NoFix,12,0,0.0,0.0,0,0.0,0.0,0,43.162895,31.355276,143.74626,970.64087,27.711525,-489.4075,46.8137,324.65488
5.105147,-5.701591,-6.1364217,0.002552079,-0.004009962,-0.008385412,374.0,90.0,144.0,3209902800.0,NoFix,12,0,0.0,0.0,0,0.0,0.0,0,43.160347,31.355402,143.74208,970.64087,27.711525,-481.9421,41.07809,336.09436
5.1203933,-5.7259855,-6.0955615,-0.015312504,-0.021145463,-0.008385412,380.0,94.0,148.0,3211214300.0,NoFix,12,0,0.0,0.0,0,0.0,0.0,0,43.160328,31.35641,143.7435,970.64087,27.711525,-492.9575,48.777042,343.6246
5.0966086,-5.732694,-6.105929,0.0014583301,-0.02041626,0.00838542,378.0,93.0,149.0,3212525800.0,NoFix,12,0,0.0,0.0,0,0.0,0.0,0,43.160633,31.355713,143.7385,970.64087,27.711525,-489.2675,46.83983,345.54697
5.0947795,-5.715618,-6.10349,0.0014583301,0.030990005,-0.025885418,383.0,88.0,148.0,3213837000.0,NoFix,12,0,0.0,0.0,0,0.0,0.0,0,43.16034,31.356482,143.73761,970.64087,27.711525,-498.21494,37.65636,343.57217
5.0862412,-5.7259855,-6.1138573,-0.016406253,0.02989626,-0.025520831,378.0,92.0,149.0,3215148500.0,NoFix,12,0,0.0,0.0,0,0.0,0.0,0,43.159756,31.356407,143.7314,970.6404,27.711525,-489.23303,44.96915,345.5446
5.090662,-5.746517,-6.1046453,0.018229164,-0.022239208,-0.007656239,381.0,91.0,154.0,3216460000.0,NoFix,12,0,0.0,0.0,0,0.0,0.0,0,43.160946,31.355349,143.71718,970.6404,27.711525,-494.59918,43.213726,355.00043
5.107096,-5.7531085,-6.143522,0.0010937471,-0.022239208,0.009843759,380.0,84.0,145.0,3217771500.0,NoFix,12,0,0.0,0.0,0,0.0,0.0,0,43.160526,31.35392,143.71428,970.6404,27.711525,-492.6511,30.063158,337.90298
5.121634,-5.715782,-6.113508,-0.015677087,0.09880257,-0.042291656,380.0,91.0,147.0,3219082800.0,NoFix,12,0,0.0,0.0,0,0.0,0.0,0,43.15987,31.356918,143.71547,970.6404,27.711525,-492.86685,43.162643,341.7182
5.0860066,-5.6899586,-6.1200457,0.0018229131,0.028437972,-0.024062492,373.0,90.0,148.0,3220394200.0,NoFix,12,0,0.0,0.0,0,0.0,0.0,0,43.157623,31.357359,143.70073,970.6404,27.711525,-480.0698,41.05313,343.7042
5.1100082,-5.7364826,-6.1159053,0.01895833,0.011302471,-0.0058333203,382.0,85.0,146.0,3221705700.0,NoFix,12,0,0.0,0.0,0,0.0,0.0,0,43.158157,31.35763,143.70023,970.6399,27.706718,-496.31564,32.005123,339.7792
5.1004653,-5.7043233,-6.1276336,-0.015312504,-0.0065619946,-0.02260416,388.0,90.0,145.0,3223017000.0,NoFix,12,0,0.0,0.0,0,0.0,0.0,0,43.155685,31.3578,143.71478,970.6399,27.706718,-507.42908,41.562878,337.81543
5.0917616,-5.685841,-6.124387,0.002187496,-0.0069265366,0.029166676,384.0,95.0,147.0,3224328400.0,NoFix,12,0,0.0,0.0,0,0.0,0.0,0,43.15327,31.357315,143.7252,970.6399,27.706718,-500.29028,50.783176,341.6768
5.079357,-5.724645,-6.0960827,0.002187496,-0.0072910786,0.010572925,381.0,97.0,147.0,3225640000.0,NoFix,12,0,0.0,0.0,0,0.0,0.0,0,43.15383,31.3563,143.73479,970.6399,27.706718,-494.895,54.421158,341.71973
5.1062474,-5.717997,-6.0937076,-0.014947921,-0.059061885,-0.024427079,386.0,95.0,149.0,3226951400.0,NoFix,12,0,0.0,0.0,0,0.0,0.0,0,43.153145,31.356495,143.74309,970.6399,27.706718,-503.90765,50.856842,345.4499
5.1009173,-5.7212253,-6.0865784,0.002552079,-0.03937447,-0.024427079,381.0,91.0,142.0,3228262700.0,NoFix,12,0,0.0,0.0,0,0.0,0.0,0,43.153442,31.356815,143.7563,970.6353,27.706718,-494.7519,43.185223,332.20905
5.106086,-5.728794,-6.0929046,0.019687496,-0.038645267,-0.006927073,386.0,93.0,143.0,3229574400.0,NoFix,12,0,0.0,0.0,0,0.0,0.0,0,43.154274,31.356861,143.77693,970.6353,27.706718,-503.9151,47.101242,334.04947
5.113656,-5.7131457,-6.1278486,-0.014947921,-0.020780683,-0.023697913,387.0,90.0,150.0,3230885600.0,NoFix,12,0,0.0,0.0,0,0.0,0.0,0,43.15213,31.35729,143.77786,970.6353,27.706718,-505.54404,41.54029,347.32455
5.1222744,-5.7101865,-6.0913534,0.002552079,-0.038280725,-0.006197907,384.0,96.0,150.0,3232196900.0,NoFix,5,0,0.0,0.0,0,0.0,0.0,0,43.15184,31.358503,143.7821,970.6353,27.706718,-500.28656,52.660973,347.37698
5.0883164,-5.700036,-6.128179,0.019687502,-0.004009962,0.01093749,381.0,92.0,149.0,3233508400.0,NoFix,5,0,0.0,0.0,0,0.0,0.0,0,43.150177,31.357756,143.7792,970.6353,27.706718,-494.69727,45.072525,345.5064
5.046814,-5.754283,-6.118386,0.0018229187,-0.0032807589,-0.0065625086,380.0,89.0,145.0,3234819800.0,NoFix,5,0,0.0,0.0,0,0.0,0.0,0,43.151062,31.354412,143.78212,970.6359,27.712364,-492.82336,39.416534,337.9149
5.084476,-5.749842,-6.1304007,-0.015677081,0.03026092,-0.023333348,382.0,96.0,146.0,3236131300.0,NoFix,5,0,0.0,0.0,0,0.0,0.0,0,43.15098,31.353422,143.79373,970.6359,27.712364,-496.69467,52.58256,339.80533
5.077229,-5.7023535,-6.153053,-0.015312498,0.012031674,-0.005468756,375.0,88.0,142.0,3237442600.0,NoFix,5,0,0.0,0.0,0,0.0,0.0,0,43.14764,31.352057,143.79312,970.6359,27.712364,-483.72006,37.366444,332.2783
5.1035857,-5.693352,-6.0916123,-0.03244792,-0.004374504,-0.022604175,381.0,86.0,147.0,3238754000.0,NoFix,5,0,0.0,0.0,0,0.0,0.0,0,43.146046,31.353441,143.78822,970.6359,27.712364,-494.51596,33.84372,341.6936
5.114646,-5.7189875,-6.122695,0.018958334,-0.02041626,0.011666663,377.0,96.0,146.0,3240065500.0,NoFix,5,0,0.0,0.0,0,0.0,0.0,0,43.14546,31.353504,143.79152,970.6359,27.712364,-487.58762,52.41027,339.869
5.0787373,-5.667302,-6.0802126,0.0014583338,-0.0029162169,0.011666663,380.0,94.0,143.0,3241376800.0,NoFix,5,0,0.0,0.0,0,0.0,0.0,0,43.144093,31.354023,143.80411,970.63416,27.712364,-493.02112,48.765167,334.1282
5.0876875,-5.733637,-6.0861945,-0.01640625,-0.0025516748,0.01203125,372.0,91.0,151.0,3242688300.0,NoFix,5,0,0.0,0.0,0,0.0,0.0,0,43.14532,31.353521,143.78296,970.63416,27.712364,-478.2447,42.896477,349.41714
5.0839047,-5.7231283,-6.129963,0.0010937508,-0.0018224716,-0.005104162,375.0,90.0,151.0,3243999700.0,NoFix,5,0,0.0,0.0,0,0.0,0.0,0,43.14428,31.352364,143.76422,970.63416,27.712364,-483.67444,41.129173,349.3766
5.087073,-5.723872,-6.128276,0.00072916783,-0.018593311,0.012395836,375.0,95.0,152.0,3245311200.0,NoFix,5,0,0.0,0.0,0,0.0,0.0,0,43.14336,31.350914,143.7489,970.63416,27.712364,-483.834,50.484932,351.28775
5.0892205,-5.705319,-6.082908,0.052500002,-0.0014578104,-0.004739575,382.0,92.0,150.0,3246622500.0,NoFix,5,0,0.0,0.0,0,0.0,0.0,0,43.144554,31.35137,143.74657,970.63416,27.712364,-496.50595,45.109356,347.39294
5.0923524,-5.726151,-6.1092362,0.00036458485,0.03244841,-0.039010413,384.0,88.0,148.0,3247934000.0,NoFix,5,0,0.0,0.0,0,0.0,0.0,0,43.14454,31.35192,143.7472,970.63354,27.706436,-500.03635,37.690815,343.55945
5.1039734,-5.740826,-6.1434345,0.035364583,-0.019322395,0.012760423,382.0,93.0,151.0,3249245400.0,NoFix,5,0,0.0,0.0,0,0.0,0.0,0,43.1444,31.350618,143.74315,970.63354,27.706436,-496.52768,46.98241,349.29462
5.08849,-5.71868,-6.072513,0.018229168,0.015313029,-0.0043749884,384.0,95.0,150.0,3250556700.0,NoFix,5,0,0.0,0.0,0,0.0,0.0,0,43.14618,31.351236,143.74815,970.63354,27.706436,-500.2521,50.7903,347.3746
5.0683837,-5.726029,-6.1042666,0.017864585,0.015313029,-0.004739575,379.0,99.0,154.0,3251868200.0,NoFix,5,0,0.0,0.0,0,0.0,0.0,0,43.146862,31.350075,143.73993,970.63354,27.706436,-491.23203,58.110218,355.0449
5.1040044,-5.71036,-6.127611,0.017864585,0.048125625,-0.0036458224,377.0,95.0,150.0,3253179600.0,NoFix,5,0,0.0,0.0,0,0.0,0.0,0,43.14602,31.350874,143.73329,970.634,27.706436,-487.50226,50.549095,347.4637
5.1145053,-5.7110453,-6.1130075,-0.016770832,0.012396336,0.0142187625,383.0,88.0,151.0,3254491000.0,NoFix,5,0,0.0,0.0,0,0.0,0.0,0,43.145084,31.351738,143.72575,970.634,27.706436,-498.17676,37.663486,349.27002
5.0952697,-5.716242,-6.0938277,-0.01640625,-0.004739046,0.03171876,385.0,89.0,143.0,3255802600.0,NoFix,5,0,0.0,0.0,0,0.0,0.0,0,43.145267,31.351517,143.74142,970.634,27.706436,-501.95584,39.584076,334.05267
5.1075425,-5.72784,-6.101116,0.00072916783,-0.004374504,-0.0032812357,386.0,93.0,143.0,3257113900.0,NoFix,5,0,0.0,0.0,0,0.0,0.0,0,43.14571,31.35196,143.76268,970.634,27.706436,-503.9151,47.101242,334.04947
5.120808,-5.6916842,-6.113132,0.00036458485,-0.022239089,0.030989595,375.0,86.0,149.0,3258425300.0,NoFix,5,0,0.0,0.0,0,0.0,0.0,0,43.14404,31.352793,143.74435,970.634,27.706436,-483.56207,33.64172,345.5685
5.1041317,-5.695181,-6.067256,-0.01640625,0.012031674,-0.003645815,383.0,91.0,147.0,3259736600.0,NoFix,5,0,0.0,0.0,0,0.0,0.0,0,43.144238,31.354658,143.74974,970.634,27.706436,-498.33105,43.266018,341.68002
5.0993648,-5.7434177,-6.1056976,-0.015677083,0.029531717,-0.002187483,377.0,83.0,147.0,3261048000.0,NoFix,5,0,0.0,0.0,0,0.0,0.0,0,43.145195,31.35472,143.73772,970.63403,27.707,-487.12695,28.093857,341.7374
5.0783043,-5.746101,-6.1187253,0.019322917,-0.004739046,0.015312515,378.0,90.0,146.0,3262359600.0,NoFix,5,0,0.0,0.0,0,0.0,0.0,0,43.14624,31.352758,143.737,970.63403,27.707,-489.20227,41.220673,339.842
5.0840893,-5.7000833,-6.123351,0.0021874998,-0.05578077,0.03171876,381.0,91.0,149.0,3263670800.0,NoFix,5,0,0.0,0.0,0,0.0,0.0,0,43.144276,31.350977,143.73315,970.63403,27.707,-494.6628,43.20185,345.50403
5.1205106,-5.701112,-6.1164365,0.018958334,-0.02041626,0.030989595,375.0,95.0,147.0,3264982300.0,NoFix,5,0,0.0,0.0,0,0.0,0.0,0,43.14328,31.351578,143.73029,970.63403,27.707,-483.89764,50.473057,341.79135
5.101527,-5.720541,-6.068774,0.035,0.031719208,0.048125006,379.0,86.0,149.0,3266293800.0,NoFix,8,0,0.0,0.0,0,0.0,0.0,0,43.14622,31.352394,143.7213,970.63403,27.707,-490.8477,33.779552,345.5176
5.082977,-5.713012,-6.0685887,0.017135417,-0.004009962,0.01312501,381.0,90.0,144.0,3267605200.0,NoFix,8,0,0.0,0.0,0,0.0,0.0,0,43.14786,31.352425,143.73026,970.6336,27.707,-494.69196,41.319298,336.00525
5.0901875,-5.7018394,-6.1152987,-0.017864583,0.030625463,-0.039010406,378.0,93.0,142.0,3268916500.0,NoFix,8,0,0.0,0.0,0,0.0,0.0,0,43.14603,31.353203,143.74136,970.6336,27.707,-489.35657,46.8232,332.25198
5.067113,-5.7312226,-6.1257854,-0.017864583,0.013489962,-0.020781241,378.0,91.0,142.0,3270228000.0,NoFix,8,0,0.0,0.0,0,0.0,0.0,0,43.145164,31.351591,143.75047,970.6336,27.707,-489.28766,43.08185,332.24722
5.0832586,-5.708374,-6.083444,-0.034635417,0.047760844,-0.0032812357,381.0,88.0,152.0,3271539500.0,NoFix,8,0,0.0,0.0,0,0.0,0.0,0,43.145214,31.352356,143.73831,970.6336,27.707,-494.52124,37.596947,351.19476
5.103746,-5.6837726,-6.1021724,0.000364583,-0.0047391653,-0.0032812357,381.0,88.0,147.0,3272850700.0,NoFix,8,0,0.0,0.0,0,0.0,0.0,0,43.143494,31.353453,143.73602,970.6336,27.707,-494.58487,37.58507,341.69836
5.1048374,-5.7385206,-6.116657,0.03427083,-0.03937471,-0.020416655,376.0,88.0,152.0,3274162200.0,NoFix,8,0,0.0,0.0,0,0.0,0.0,0,43.143986,31.352936,143.71463,970.6336,27.707,-485.4142,37.424656,351.2584
5.112132,-5.7342243,-6.0958915,-0.00072916783,-0.0047391653,-0.0368229,378.0,99.0,151.0,3275473700.0,NoFix,8,0,0.0,0.0,0,0.0,0.0,0,43.14467,31.354002,143.71204,970.6336,27.707,-489.4488,58.068634,349.35977
5.0993385,-5.716553,-6.0977373,-0.00072916783,0.0131253,-0.002187483,384.0,91.0,150.0,3276785200.0,NoFix,8,0,0.0,0.0,0,0.0,0.0,0,43.144848,31.354546,143.71207,970.6336,27.707,-500.1143,43.307594,347.3651
5.089873,-5.7010236,-6.0925984,-0.0010937508,-0.00364542,-0.019687489,376.0,91.0,146.0,3278096400.0,NoFix,8,0,0.0,0.0,0,0.0,0.0,0,43.14423,31.355055,143.70863,970.6336,27.707,-485.59396,43.022434,339.8698
5.0862746,-5.72366,-6.1164603,0.033541664,-0.021145463,0.032083347,380.0,94.0,146.0,3279407900.0,NoFix,8,0,0.0,0.0,0,0.0,0.0,0,43.14459,31.35351,143.71542,970.6336,27.707,-492.98294,48.772293,339.82605
5.1110435,-5.7307854,-6.105315,-0.0014583338,-0.021145463,0.014583349,383.0,94.0,145.0,3280719400.0,NoFix,8,0,0.0,0.0,0,0.0,0.0,0,43.144962,31.353483,143.72914,970.63367,27.707565,-498.45987,48.873287,337.88858
5.109565,-5.7281294,-6.0605927,-0.018958334,0.032812834,0.013489597,385.0,93.0,148.0,3282030600.0,NoFix,8,0,0.0,0.0,0,0.0,0.0,0,43.1473,31.35515,143.73917,970.63367,27.707565,-502.03006,47.078655,343.5586
5.0970054,-5.7258964,-6.1284842,-0.0014583338,0.0842191,-0.021510407,381.0,87.0,153.0,3283342000.0,NoFix,8,0,0.0,0.0,0,0.0,0.0,0,43.146923,31.355972,143.72334,970.63367,27.707565,-494.47406,35.72864,353.09164
5.0939474,-5.721008,-6.144335,-0.0010937508,-0.002916336,0.01312501,374.0,96.0,143.0,3284653600.0,NoFix,8,0,0.0,0.0,0,0.0,0.0,0,43.145214,31.354753,143.7298,970.63367,27.707565,-482.1616,52.29977,334.20932
5.1056623,-5.7321277,-6.079825,-0.01859375,0.031354427,-0.004739575,382.0,89.0,151.0,3285965000.0,NoFix,8,0,0.0,0.0,0,0.0,0.0,0,43.14673,31.355963,143.72314,970.63367,27.707565,-496.38983,39.499702,349.2851
5.104274,-5.713639,-6.1137824,-0.0010937508,-0.02078104,-0.004010409,385.0,95.0,148.0,3287276300.0,NoFix,8,0,0.0,0.0,0,0.0,0.0,0,43.145744,31.355993,143.73285,970.63367,27.707565,-502.09897,50.82001,343.56332
5.109855,-5.7374563,-6.13512,-0.035364587,0.013854384,0.013489589,375.0,97.0,148.0,3288587800.0,NoFix,8,0,0.0,0.0,0,0.0,0.0,0,43.144726,31.355625,143.73058,970.63367,27.707565,-483.95383,54.21678,343.69534
5.117704,-5.71358,-6.0996494,-0.00072916783,-0.0047392845,-0.004374996,385.0,91.0,146.0,3289899300.0,NoFix,8,0,0.0,0.0,0,0.0,0.0,0,43.14453,31.35684,143.74078,970.63367,27.707565,-501.9866,43.332558,339.75528
5.098767,-5.7488422,-6.154378,-0.00072916783,0.011666894,0.012395836,376.0,87.0,150.0,3291210500.0,NoFix,8,0,0.0,0.0,0,0.0,0.0,0,43.14383,31.355286,143.72359,970.63367,27.707565,-485.4052,35.549225,347.45743
5.083449,-5.7316856,-6.117701,-0.017500002,0.010573149,-0.02223958,378.0,86.0,148.0,3292522000.0,NoFix,8,0,0.0,0.0,0,0.0,0.0,0,43.143353,31.354572,143.7131,970.63367,27.707565,-489.039,33.742718,343.63104
5.126155,-5.712803,-6.114065,-0.00036458485,-0.007291317,-0.005104162,387.0,93.0,146.0,3293833500.0,NoFix,8,0,0.0,0.0,0,0.0,0.0,0,43.14246,31.355873,143.72832,970.63367,27.707848,-505.69833,47.142822,339.7346
5.091489,-5.7129083,-6.0995417,-0.03463542,-0.00802052,-0.005104162,387.0,89.0,148.0,3295145000.0,NoFix,8,0,0.0,0.0,0,0.0,0.0,0,43.141575,31.355812,143.73444,970.63367,27.707848,-505.53503,39.664867,343.52362
5.102122,-5.7234993,-6.143036,-0.016406251,0.009114742,0.029531233,372.0,85.0,143.0,3296456200.0,NoFix,8,0,0.0,0.0,0,0.0,0.0,0,43.14004,31.35491,143.72531,970.63367,27.707848,-478.13974,31.65342,334.20865
5.125678,-5.703735,-6.12996,0.001093749,0.0087502,0.028802067,384.0,94.0,147.0,3297767700.0,NoFix,8,0,0.0,0.0,0,0.0,0.0,0,43.138493,31.355812,143.73515,970.63367,27.707848,-500.25583,48.912502,341.67444
5.0904555,-5.676526,-6.082079,0.000729166,0.043385744,0.044843733,379.0,91.0,142.0,3299079200.0,NoFix,8,0,0.0,0.0,0,0.0,0.0,0,43.13818,31.356865,143.74702,970.63367,27.707848,-491.10907,43.116306,332.2345
5.0869403,-5.715108,-6.1115246,0.0175,0.059791923,0.0608854,380.0,97.0,151.0,3300390400.0,NoFix,11,0,0.0,0.0,0,0.0,0.0,0,43.13901,31.35636,143.74666,970.6332,27.707848,-493.02267,54.3962,349.32956
5.1086774,-5.727061,-6.0868697,0.01640625,-0.010208011,0.04192707,373.0,97.0,151.0,3301702000.0,NoFix,11,0,0.0,0.0,0,0.0,0.0,0,43.14074,31.356455,143.73465,970.6332,27.707848,-480.27283,54.15499,349.41867
5.055734,-5.7321496,-6.0541945,0.033541664,-0.027708054,0.024062485,383.0,100.0,149.0,3303013400.0,NoFix,11,0,0.0,0.0,0,0.0,0.0,0,43.144222,31.354603,143.74718,970.6332,27.707848,-498.61572,60.10685,345.49997
5.12492,-5.7377877,-6.1140466,0.015677083,-0.027343512,-0.044843763,376.0,89.0,144.0,3304324900.0,NoFix,11,0,0.0,0.0,0,0.0,0.0,0,43.14431,31.355583,143.7455,970.6332,27.707848,-485.55048,39.276333,336.06653
5.0731664,-5.727513,-6.0885315,-0.0021874998,-0.02697897,-0.04375001,383.0,91.0,149.0,3305636000.0,NoFix,11,0,0.0,0.0,0,0.0,0.0,0,43.144737,31.354832,143.74525,970.6328,27.70417,-498.3056,43.270767,345.47858
5.1235995,-5.738285,-6.105999,-0.0021874998,-0.04374981,-0.043020844,382.0,95.0,149.0,3306947600.0,NoFix,11,0,0.0,0.0,0,0.0,0.0,0,43.14477,31.355673,143.74777,970.6328,27.70417,-496.62204,50.719013,345.5008
5.087873,-5.701979,-6.1075206,-0.0021874998,-0.06052053,-0.04192709,381.0,93.0,151.0,3308259000.0,NoFix,11,0,0.0,0.0,0,0.0,0.0,0,43.14287,31.355228,143.74051,970.6328,27.70417,-494.70627,46.947952,349.30734
5.095109,-5.7408395,-6.140838,0.016041666,-0.076562285,-0.041197926,382.0,86.0,146.0,3309570300.0,NoFix,11,0,0.0,0.0,0,0.0,0.0,0,43.141582,31.353432,143.73854,970.6328,27.70417,-496.3501,33.8758,339.7816
5.102305,-5.7352147,-6.103498,-0.0014583338,-0.0058330297,-0.024062514,376.0,89.0,151.0,3310881800.0,NoFix,11,0,0.0,0.0,0,0.0,0.0,0,43.14208,31.353657,143.72124,970.6328,27.70417,-485.4614,39.292957,349.36148
5.0893297,-5.693634,-6.1290264,-0.052135415,-0.023333073,-0.006197922,387.0,94.0,149.0,3312193300.0,NoFix,11,0,0.0,0.0,0,0.0,0.0,0,43.138485,31.353073,143.7295,970.6328,27.70417,-505.6946,49.020622,345.43478
5.096112,-5.7186446,-6.136919,-0.050677083,0.045937777,0.028072909,376.0,93.0,148.0,3313504500.0,NoFix,11,0,0.0,0.0,0,0.0,0.0,0,43.13665,31.352676,143.72444,970.6342,27.70417,-485.63742,46.768536,343.67313
5.100668,-5.7060905,-6.134093,-0.032083333,0.010937691,0.027343743,386.0,94.0,152.0,3314816000.0,NoFix,11,0,0.0,0.0,0,0.0,0.0,0,43.134422,31.35233,143.72552,970.6342,27.70417,-503.83502,48.993294,351.14536
5.070618,-5.704141,-6.089498,-0.032083333,0.0634377,-0.007656254,379.0,94.0,148.0,3316127500.0,NoFix,11,0,0.0,0.0,0,0.0,0.0,0,43.13423,31.35271,143.72678,970.6342,27.70417,-491.13608,48.742584,343.63733
5.0731854,-5.747577,-6.0890417,0.0029166676,0.010937691,0.009843744,378.0,98.0,143.0,3317439000.0,NoFix,11,0,0.0,0.0,0,0.0,0.0,0,43.13652,31.3514,143.74403,970.6342,27.70417,-489.5161,56.178955,334.16315
5.10806,-5.7105145,-6.0654016,-0.014583332,0.028437734,-0.007656254,384.0,91.0,149.0,3318750200.0,NoFix,11,0,0.0,0.0,0,0.0,0.0,0,43.137768,31.35349,143.74692,970.6342,27.70417,-500.127,43.30522,345.46585
5.0980043,-5.6852508,-6.0999207,0.0029166676,-0.024062276,0.027343743,382.0,96.0,147.0,3320061700.0,NoFix,11,0,0.0,0.0,0,0.0,0.0,0,43.13645,31.353657,143.75575,970.6346,27.707848,-496.68195,52.584938,341.70462
5.0766325,-5.7266855,-6.1187906,0.037916668,-0.024062276,-0.02515626,373.0,88.0,149.0,3321373200.0,NoFix,11,0,0.0,0.0,0,0.0,0.0,0,43.13651,31.352268,143.73637,970.6346,27.707848,-479.98816,37.314156,345.59872
5.104218,-5.738358,-6.0901837,0.0029166676,-0.024062276,-0.02515626,383.0,94.0,147.0,3322684400.0,NoFix,11,0,0.0,0.0,0,0.0,0.0,0,43.137722,31.352575,143.74509,970.6346,27.707848,-498.43442,48.87804,341.68716
5.0557575,-5.720427,-6.113131,0.0029166676,0.010937691,-0.007656254,382.0,87.0,142.0,3323996000.0,NoFix,11,0,0.0,0.0,0,0.0,0.0,0,43.137466,31.350693,143.75554,970.6346,27.707848,-496.43546,35.736973,332.18683
5.1324067,-5.7238803,-6.1190095,0.037916668,-0.024062276,0.009843744,388.0,95.0,149.0,3325307400.0,NoFix,11,0,0.0,0.0,0,0.0,0.0,0,43.137672,31.351578,143.7674,970.6346,27.707848,-507.55048,50.92576,345.42444
5.0629773,-5.7367806,-6.091061,0.018958338,-0.006926894,-0.0054687485,380.0,99.0,139.0,3326619000.0,NoFix,11,0,0.0,0.0,0,0.0,0.0,0,43.139378,31.34992,143.79745,970.6346,27.707848,-493.24435,58.10905,326.54297
5.1080055,-5.699478,-6.1397285,-0.015312497,-0.007291436,-0.021875001,376.0,92.0,141.0,3327930000.0,NoFix,11,0,0.0,0.0,0,0.0,0.0,0,43.136314,31.350348,143.80531,970.6346,27.707848,-485.69208,44.881233,330.3758
5.1333327,-5.679043,-6.119269,-0.031354167,0.02770853,-0.0546875,372.0,91.0,143.0,3329241600.0,NoFix,11,0,0.0,0.0,0,0.0,0.0,0,43.13291,31.353725,143.80089,970.6346,27.707848,-478.3465,42.877476,334.2229
5.117668,-5.6858916,-6.121204,-0.013124997,-0.04156232,-0.0018229112,382.0,91.0,140.0,3330553000.0,NoFix,11,0,0.0,0.0,0,0.0,0.0,0,43.130035,31.354498,143.81857,970.6346,27.707848,-496.5988,43.21493,328.39777
5.1057887,-5.70812,-6.1354814,-0.030624999,0.045937777,0.015677087,384.0,95.0,148.0,3331864300.0,NoFix,11,0,0.0,0.0,0,0.0,0.0,0,43.128117,31.354944,143.82678,970.6346,27.707848,-500.27756,50.78555,343.57605
5.103325,-5.7257705,-6.099482,0.0043750033,0.045937777,0.050677083,376.0,92.0,143.0,3333175800.0,NoFix,11,0,0.0,0.0,0,0.0,0.0,0,43.129623,31.355225,143.83315,970.6347,27.708977,-485.6666,44.885983,334.17435
5.0763774,-5.738434,-6.0731196,0.056875005,-0.024062276,0.050677083,382.0,87.0,147.0,3334487300.0,NoFix,1,0,0.0,0.0,0,0.0,0.0,0,43.133354,31.353552,143.83304,970.6347,27.708977,-496.37183,35.74885,341.68326
5.139982,-5.745296,-6.0653257,0.039375003,0.010937691,0.033177085,384.0,100.0,149.0,3335798800.0,NoFix,1,0,0.0,0.0,0,0.0,0.0,0,43.1375,31.355665,143.847,970.6347,27.708977,-500.43713,60.141304,345.4872
5.0460644,-5.7398453,-6.0733232,-0.013124997,0.045937777,0.033177085,379.0,91.0,148.0,3337110000.0,NoFix,1,0,0.0,0.0,0,0.0,0.0,0,43.14029,31.353704,143.84521,970.6347,27.708977,-491.0327,43.130558,343.6302
5.0666766,-5.726991,-6.0623307,0.021875003,0.010937691,-0.0018229112,383.0,93.0,147.0,3338421500.0,NoFix,1,0,0.0,0.0,0,0.0,0.0,0,43.143013,31.353203,143.85294,970.6347,27.708977,-498.39996,47.007366,341.68478
5.094648,-5.729345,-6.095774,0.0043750033,-0.006562233,-0.019322917,387.0,92.0,153.0,3339733000.0,NoFix,1,0,0.0,0.0,0,0.0,0.0,0,43.14371,31.353281,143.85007,970.6333,27.708977,-505.5748,45.288773,353.02716
5.0730333,-5.7265954,-6.116782,0.0043750033,-0.04156232,-0.054322913,384.0,91.0,150.0,3341044200.0,NoFix,1,0,0.0,0.0,0,0.0,0.0,0,43.142757,31.351906,143.84694,970.6333,27.708977,-500.1143,43.307594,347.3651
5.093237,-5.7120585,-6.1022515,-0.030624999,-0.04156232,-0.054322913,383.0,96.0,146.0,3342355700.0,NoFix,1,0,0.0,0.0,0,0.0,0.0,0,43.141094,31.352097,143.85764,970.6333,27.708977,-498.51605,52.61702,339.7926
5.099943,-5.718155,-6.135174,0.021875003,-0.059062243,-0.036822915,385.0,95.0,149.0,3343667200.0,NoFix,1,0,0.0,0.0,0,0.0,0.0,0,43.13929,31.351318,143.86232,970.6333,27.708977,-502.08624,50.822388,345.46262
5.102724,-5.6709127,-6.1330233,-0.013124997,-0.006562233,0.033177085,376.0,96.0,144.0,3344978700.0,NoFix,1,0,0.0,0.0,0,0.0,0.0,0,43.135674,31.351482,143.86746,970.6333,27.708977,-485.7917,52.371063,336.08316
5.080435,-5.6858435,-6.1321273,-0.083125,0.028437734,0.033177085,381.0,90.0,142.0,3346290000.0,NoFix,1,0,0.0,0.0,0,0.0,0.0,0,43.13179,31.350792,143.87854,970.63226,27.699371,-494.7174,41.314545,332.20667
5.090935,-5.7109933,-6.128633,-0.013124997,-0.006562233,0.050677083,383.0,89.0,142.0,3347601400.0,NoFix,1,0,0.0,0.0,0,0.0,0.0,0,43.130512,31.349466,143.8917,970.63226,27.699371,-498.32574,39.512783,332.17883
5.118343,-5.671941,-6.121892,0.074375,-0.059062243,0.050677083,383.0,96.0,148.0,3348913000.0,NoFix,1,0,0.0,0.0,0,0.0,0.0,0,43.128925,31.349642,143.89735,970.63226,27.699371,-498.4906,52.62177,343.59116
5.0692964,-5.705245,-6.0942526,0.021875003,-0.04156232,0.033177085,387.0,84.0,149.0,3350224100.0,NoFix,1,0,0.0,0.0,0,0.0,0.0,0,43.12918,31.34788,143.89423,970.63226,27.699371,-505.35004,30.313862,345.41104
5.125518,-5.7431893,-6.0937934,0.021875003,0.010937691,0.033177085,379.0,88.0,148.0,3351535600.0,NoFix,1,0,0.0,0.0,0,0.0,0.0,0,43.13167,31.348795,143.88779,970.63226,27.699371,-490.92932,37.518528,343.62308
5.0852017,-5.7674966,-6.082731,-0.030624999,0.010937691,0.033177085,376.0,95.0,151.0,3352847000.0,NoFix,1,0,0.0,0.0,0,0.0,0.0,0,43.134785,31.34754,143.87837,970.6355,27.699371,-485.66815,50.517014,349.37573
5.0666347,-5.78983,-6.091669,0.0043750033,0.010937691,0.050677083,372.0,96.0,147.0,3354158600.0,NoFix,1,0,0.0,0.0,0,0.0,0.0,0,43.13935,31.344553,143.87424,970.6355,27.699371,-478.46786,52.240356,341.8319
5.0321536,-5.7486806,-6.1029806,0.021875003,0.010937691,0.033177085,383.0,97.0,148.0,3355469800.0,NoFix,1,0,0.0,0.0,0,0.0,0.0,0,43.141594,31.340748,143.88434,970.6355,27.699371,-498.52505,54.492443,343.59354
5.0925245,-5.7712436,-6.0962725,0.021875003,0.010937691,-0.0018229112,382.0,90.0,143.0,3356781300.0,NoFix,1,0,0.0,0.0,0,0.0,0.0,0,43.144894,31.340021,143.89645,970.6355,27.699371,-496.5261,41.35138,334.09323
5.0827684,-5.731606,-6.085296,-0.013124997,0.028437734,0.015677087,380.0,90.0,146.0,3358092800.0,NoFix,1,0,0.0,0.0,0,0.0,0.0,0,43.14637,31.339844,143.89827,970.6355,27.699371,-492.8451,41.28959,339.81653
5.081548,-5.7236786,-6.1060295,-0.030624999,0.028437734,-0.019322917,384.0,91.0,151.0,3359404000.0,NoFix,1,0,0.0,0.0,0,0.0,0.0,0,43.145916,31.339806,143.89426,970.6355,27.699371,-500.10156,43.30997,349.2644
5.0971384,-5.722846,-6.1357155,-0.013124997,0.010937691,-0.019322917,383.0,92.0,147.0,3360715500.0,NoFix,1,0,0.0,0.0,0,0.0,0.0,0,43.144302,31.339651,143.89832,970.6355,27.699371,-498.3655,45.136692,341.6824
5.0944424,-5.720119,-6.075034,0.039375003,-0.024062276,-0.0018229112,382.0,95.0,147.0,3362027000.0,NoFix,1,0,0.0,0.0,0,0.0,0.0,0,43.146137,31.339987,143.90549,970.6355,27.699371,-496.6475,50.714264,341.70224
5.1164002,-5.703048,-6.0963826,0.039375003,-0.059062243,-0.019322917,384.0,92.0,144.0,3363338500.0,NoFix,1,0,0.0,0.0,0,0.0,0.0,0,43.145775,31.340998,143.91728,970.6355,27.699371,-500.2251,45.16402,335.97183
5.131036,-5.710976,-6.027473,0.021875003,-0.006562233,-0.036822915,383.0,94.0,148.0,3364649700.0,NoFix,1,0,0.0,0.0,0,0.0,0.0,0,43.148823,31.344976,143.92276,970.6355,27.699371,-498.4217,48.880413,343.58643
5.1491594,-5.760108,-6.1143603,-0.013124997,0.045937777,-0.019322917,374.0,92.0,154.0,3365961200.0,NoFix,1,0,0.0,0.0,0,0.0,0.0,0,43.150173,31.347431,143.89787,970.6361,27.705582,-481.8838,44.843193,355.0919
5.111534,-5.714577,-6.1188416,-0.013124997,0.028437734,0.033177085,376.0,90.0,150.0,3367272700.0,NoFix,1,0,0.0,0.0,0,0.0,0.0,0,43.14946,31.347975,143.88309,970.6361,27.705582,-485.50858,41.161255,347.46457
5.116848,-5.7046266,-6.096682,-0.030624999,0.045937777,0.033177085,381.0,98.0,148.0,3368584000.0,NoFix,1,0,0.0,0.0,0,0.0,0.0,0,43.14907,31.349665,143.89075,970.6361,27.705582,-494.91672,56.294205,343.62137
5.0932593,-5.722523,-6.1164227,0.0043750033,0.010937691,0.015677087,377.0,95.0,147.0,3369895400.0,NoFix,6,0,0.0,0.0,0,0.0,0.0,0,43.148884,31.34918,143.89023,970.6361,27.705582,-487.54044,50.541973,341.7659
5.0933833,-5.7323422,-6.142667,0.056875005,-0.059062243,0.050677083,384.0,92.0,152.0,3371207000.0,NoFix,6,0,0.0,0.0,0,0.0,0.0,0,43.14875,31.346537,143.88416,970.6361,27.705582,-500.1233,45.18302,351.16608
5.057153,-5.7522526,-6.108948,0.0043750033,-0.006562233,-0.0018229112,383.0,86.0,148.0,3372518100.0,NoFix,6,0,0.0,0.0,0,0.0,0.0,0,43.150055,31.343931,143.88045,970.63477,27.705582,-498.14603,33.915005,343.5674
5.077884,-5.7455454,-6.1040707,0.021875003,-0.024062276,-0.019322917,382.0,93.0,148.0,3373829600.0,NoFix,6,0,0.0,0.0,0,0.0,0.0,0,43.151268,31.342548,143.88266,970.63477,27.705582,-496.56586,46.975285,343.59677
5.0510554,-5.7431064,-6.1193137,0.039375003,-0.04156232,-0.019322917,379.0,89.0,147.0,3375141000.0,NoFix,6,0,0.0,0.0,0,0.0,0.0,0,43.151882,31.339386,143.8774,970.63477,27.705582,-490.9765,39.38683,341.7262
5.0845914,-5.7461553,-6.1022415,0.021875003,-0.024062276,0.015677087,377.0,91.0,153.0,3376452600.0,NoFix,6,0,0.0,0.0,0,0.0,0.0,0,43.153492,31.337938,143.8585,970.63477,27.705582,-487.32626,43.073517,353.15204
5.1114197,-5.724205,-6.129679,0.021875003,-0.04156232,-0.036822915,379.0,90.0,150.0,3377763800.0,NoFix,6,0,0.0,0.0,0,0.0,0.0,0,43.15224,31.338078,143.84659,970.63477,27.705582,-490.97278,41.26463,347.42636
5.1278825,-5.7089615,-6.129679,0.014947916,-0.019322753,-0.024791636,378.0,86.0,150.0,3379075300.0,NoFix,6,0,0.0,0.0,0,0.0,0.0,0,43.15042,31.339455,143.82901,970.6345,27.702194,-489.01355,33.747467,347.4296
5.107152,-5.6973763,-6.0809,0.014583333,-0.01859355,-0.02406247,375.0,99.0,150.0,3380386800.0,NoFix,6,0,0.0,0.0,0,0.0,0.0,0,43.15025,31.3411,143.82253,970.6345,27.702194,-483.9973,57.962883,347.49866
5.090079,-5.713839,-6.085778,-0.0032812497,-0.051770568,0.027708367,382.0,91.0,149.0,3381698000.0,NoFix,6,0,0.0,0.0,0,0.0,0.0,0,43.150467,31.340345,143.8206,970.6345,27.702194,-496.48422,43.23631,345.4913
5.0766644,-5.71262,-6.1138263,-0.020416666,0.00036489964,-0.006562464,381.0,95.0,146.0,3383009500.0,NoFix,6,0,0.0,0.0,0,0.0,0.0,0,43.149185,31.339573,143.82858,970.6345,27.702194,-494.8388,50.67743,339.8157
5.0937376,-5.739448,-6.1229725,0.08348958,-0.017135143,-0.0069270507,380.0,90.0,151.0,3384321000.0,NoFix,6,0,0.0,0.0,0,0.0,0.0,0,43.150608,31.338634,143.81754,970.6345,27.702194,-492.78146,41.301464,349.31293
5.0809326,-5.6766453,-6.126021,0.030989584,0.05286491,-0.0069270507,384.0,92.0,147.0,3385632500.0,NoFix,6,0,0.0,0.0,0,0.0,0.0,0,43.148445,31.339262,143.82367,970.63666,27.702194,-500.18692,45.171146,341.66968
5.092518,-5.7010345,-6.0967536,-0.021510417,0.035364866,0.028072946,376.0,94.0,139.0,3386943700.0,NoFix,6,0,0.0,0.0,0,0.0,0.0,0,43.147926,31.339874,143.84108,970.63666,27.702194,-485.78644,48.617836,326.582
5.103493,-5.721156,-6.0809,0.0134895835,0.05286491,0.045572944,379.0,90.0,148.0,3388255200.0,NoFix,6,0,0.0,0.0,0,0.0,0.0,0,43.150047,31.34095,143.83789,970.63666,27.702194,-490.99823,41.25988,343.6278
5.1333704,-5.694328,-6.1455326,0.0134895835,-0.017135143,0.08057294,383.0,92.0,148.0,3389566700.0,NoFix,6,0,0.0,0.0,0,0.0,0.0,0,43.14773,31.341166,143.84036,970.63666,27.702194,-498.35278,45.139065,343.58167
5.048617,-5.7510333,-6.114436,0.030989584,0.00036489964,0.08057294,382.0,86.0,146.0,3390878000.0,NoFix,6,0,0.0,0.0,0,0.0,0.0,0,43.149994,31.337132,143.84154,970.63666,27.701355,-496.3501,33.8758,339.7816
5.0888596,-5.760789,-6.1138263,0.0134895835,0.035364866,0.08057294,378.0,90.0,149.0,3392189400.0,NoFix,6,0,0.0,0.0,0,0.0,0.0,0,43.15266,31.335356,143.83498,970.63666,27.701355,-489.1641,41.2278,345.53986
5.0906887,-5.7388387,-6.086388,0.030989584,0.07036483,0.045572944,383.0,91.0,143.0,3393501000.0,NoFix,6,0,0.0,0.0,0,0.0,0.0,0,43.155804,31.33564,143.85124,970.63666,27.701355,-498.38196,43.256516,334.0829
5.106718,-5.719451,-6.093797,0.030989584,-0.034635186,0.028072946,378.0,90.0,145.0,3394812400.0,NoFix,6,0,0.0,0.0,0,0.0,0.0,0,43.156677,31.335684,143.85155,970.63666,27.701355,-489.215,41.218296,337.94272
5.1054983,-5.7060375,-6.10721,-0.0040104166,-0.017135143,0.028072946,382.0,89.0,150.0,3396123600.0,NoFix,6,0,0.0,0.0,0,0.0,0.0,0,43.155773,31.335892,143.8446,970.63666,27.701355,-496.40256,39.497326,347.3858
5.079282,-5.7505445,-6.1236715,0.0134895835,-0.017135143,0.045572944,387.0,93.0,148.0,3397435100.0,NoFix,6,0,0.0,0.0,0,0.0,0.0,0,43.15675,31.333399,143.85533,970.63666,27.701355,-505.67288,47.14757,343.53314
5.075014,-5.7145734,-6.135865,0.030989584,-0.05213511,0.010572948,386.0,90.0,150.0,3398746600.0,NoFix,6,0,0.0,0.0,0,0.0,0.0,0,43.155216,31.331144,143.85417,970.63477,27.701355,-503.72263,41.505836,347.33728
5.0933046,-5.717012,-6.1084294,0.0134895835,-0.017135143,-0.0069270507,383.0,91.0,147.0,3400057900.0,NoFix,6,0,0.0,0.0,0,0.0,0.0,0,43.15484,31.331028,143.85768,970.63477,27.701355,-498.33105,43.266018,341.68002
5.08355,-5.7389607,-6.091358,-0.0040104166,-0.05213511,-0.024427056,383.0,89.0,145.0,3401369300.0,NoFix,6,0,0.0,0.0,0,0.0,0.0,0,43.155506,31.33012,143.86362,970.63477,27.701355,-498.28757,39.51991,337.87668
5.1054983,-5.717012,-6.1242814,-0.021510417,0.00036489964,0.010572948,381.0,88.0,148.0,3402680800.0,NoFix,6,0,0.0,0.0,0,0.0,0.0,0,43.154034,31.330278,143.8585,970.63477,27.701355,-494.57214,37.587444,343.59763
5.106718,-5.7157927,-6.1681786,-0.0040104166,0.035364866,0.010572948,384.0,88.0,147.0,3403992300.0,NoFix,8,0,0.0,0.0,0,0.0,0.0,0,43.151188,31.330076,143.85971,970.63477,27.701355,-500.04907,37.688442,341.6602
5.1012306,-5.6712856,-6.1376944,-0.0040104166,0.017864823,-0.0069270507,381.0,90.0,149.0,3405303600.0,NoFix,8,0,0.0,0.0,0,0.0,0.0,0,43.147297,31.331127,143.85313,970.63513,27.705582,-494.62833,41.331173,345.50165
5.125008,-5.7511544,-6.060264,-0.0040104166,0.017864823,-0.0069270507,384.0,91.0,149.0,3406615000.0,NoFix,8,0,0.0,0.0,0,0.0,0.0,0,43.150703,31.333344,143.85602,970.63513,27.705582,-500.127,43.30522,345.46585
5.112815,-5.7328634,-6.1041617,0.048489586,0.00036489964,-0.0069270507,381.0,91.0,146.0,3407926500.0,NoFix,8,0,0.0,0.0,0,0.0,0.0,0,43.15212,31.33416,143.85966,970.63513,27.705582,-494.701,43.194725,339.80618
5.1060405,-5.7380486,-6.0793457,0.0134895835,-0.017135143,-0.0069270507,381.0,90.0,144.0,3409237800.0,NoFix,8,0,0.0,0.0,0,0.0,0.0,0,43.154057,31.334824,143.86723,970.63513,27.705582,-494.69196,41.319298,336.00525
5.0816493,-5.7258444,-6.118335,-0.03901042,0.00036489964,0.028072946,383.0,85.0,148.0,3410549200.0,NoFix,8,0,0.0,0.0,0,0.0,0.0,0,43.15311,31.333519,143.86235,970.63885,27.705582,-498.11157,32.04433,343.56503
5.130094,-5.7187934,-6.106993,-0.03901042,0.07036483,0.028072946,383.0,92.0,148.0,3411860700.0,NoFix,8,0,0.0,0.0,0,0.0,0.0,0,43.152878,31.335888,143.86658,970.63885,27.705582,-498.35278,45.139065,343.58167
